{
  "meta": {
    "stageId": "OnsHuisie",
    "name": "Imported Stage",
    "version": "1.0",
    "createdAt": "2026-02-08T07:13:24.106Z",
    "distanceUnit": "km",
    "author": "GPX Converter",
    "offline": true
  },
  "settings": {
    "defaultWaypointRadius": 30,
    "highlightWindowKm": 0.3
  },
  "items": [
    {
      "id": "rb-001",
      "distance": 0,
      "title": "Start:NW",
      "note": "",
      "tulip": {
        "file": "straight.png",
        "orientation": "north"
      },
      "waypointId": "wp-1"
    },
    {
      "id": "rb-002",
      "distance": 0.11,
      "title": "Junction Right:NE",
      "note": "",
      "tulip": {
        "file": "straight.png",
        "orientation": "north"
      },
      "waypointId": "wp-2"
    },
    {
      "id": "rb-003",
      "distance": 0.72,
      "title": "Straight:NE",
      "note": "",
      "tulip": {
        "file": "straight.png",
        "orientation": "north"
      },
      "waypointId": "wp-3"
    },
    {
      "id": "rb-004",
      "distance": 1.23,
      "title": "Slipway Left:W",
      "note": "",
      "tulip": {
        "file": "straight.png",
        "orientation": "north"
      },
      "waypointId": "wp-4"
    },
    {
      "id": "rb-005",
      "distance": 1.44,
      "title": "Junction Left:W",
      "note": "",
      "tulip": {
        "file": "straight.png",
        "orientation": "north"
      },
      "waypointId": "wp-5"
    },
    {
      "id": "rb-006",
      "distance": 2.74,
      "title": "Finish:SSE",
      "note": "",
      "tulip": {
        "file": "straight.png",
        "orientation": "north"
      },
      "waypointId": "wp-6"
    }
  ],
  "waypoints": [
    {
      "id": "wp-1",
      "name": "Start:NW",
      "lat": -33.81188157945871,
      "lng": 18.471542671322823,
      "radius": 30
    },
    {
      "id": "wp-2",
      "name": "Junction Right:NE",
      "lat": -33.812320455908775,
      "lng": 18.470525108277798,
      "radius": 30
    },
    {
      "id": "wp-3",
      "name": "Straight:NE",
      "lat": -33.80772323347628,
      "lng": 18.466914016753435,
      "radius": 30
    },
    {
      "id": "wp-4",
      "name": "Slipway Left:W",
      "lat": -33.80368039011955,
      "lng": 18.46426147967577,
      "radius": 30
    },
    {
      "id": "wp-5",
      "name": "Junction Left:W",
      "lat": -33.80301771685481,
      "lng": 18.46210364252329,
      "radius": 30
    },
    {
      "id": "wp-6",
      "name": "Finish:SSE",
      "lat": -33.811697009950876,
      "lng": 18.47142373211682,
      "radius": 30
    }
  ],
  "assets": {
    "tulipsPath": "assets/tulips/",
    "iconsPath": "assets/icons/"
  }
}